{
    "places" : [
    {
        "name": "Nestle Lanka PLC",
        "city": "Colombo",
        "coordinates": [6.9271, 79.8612],
        "color": "red",
        "type": "Food Processing"
    },
    {
        "name": "Nestle India LTD",
        "city": "Ponda",
        "coordinates": [15.4027,74.0078],
        "color": "red",
        "type": "Food Processing"
    },
    {
        "name": "Nestle India LTD",
        "city": "Moga",
        "coordinates": [30.8230, 75.1734],
        "color": "red",
        "type": "Food Processing"
    },
    {
        "name": "Nestle India LTD",
        "city": "Nanjangud",
        "coordinates": [12.1160, 76.6782],
        "color": "red",
        "type": "Food Processing"
    },
    {
        "name": "Nestle India LTD",
        "city": "Pantnagar",
        "coordinates": [29.0222, 79.4908],
        "color": "red",
        "type": "Food Processing"
    },
    {
        "name": "Nestle India LTD",
        "city": "Choladi",
        "coordinates": [11.5543, 76.3880],
        "color": "red",
        "type": "Food Processing"
    },
    {
        "name": "Nestle India LTD",
        "city": "Tahliwal",
        "coordinates": [31.3492, 76.2682],
        "color": "red",
        "type": "Food Processing"
    },
    {
        "name": "Nestle India LTD",
        "city": "Bicholim",
        "coordinates": [15.5889, 73.9654],
        "color": "red",
        "type": "Food Processing"
    },
    {
        "name": "Nestle India LTD",
        "city": "Samalkha",
        "coordinates": [29.2405, 77.0118],
        "color": "red",
        "type": "Food Processing"
    },
    {
        "name": "Simple Foods Nagpur (Haldiram)",
        "city": "Nagpur",
        "coordinates": [21.1458, 79.0882],
        "color": "red",
        "type":"Food Processing"
    },
    {
        "name": "Britannia Industries Ltd.",
        "city": "Pune",
        "coordinates": [18.5204, 73.8567],
        "color": "red",
        "type":"Food Processing"
    },
    {
        "name": "Rich Graviss Products Pvt. Ltd.",
        "city": "Pune",
        "coordinates": [18.5204, 74.3467],
        "color": "red",
        "type":"Food Processing"
    },
    {
        "name": "Rich Graviss Products Pvt. Ltd.",
        "city": "Chandigarh",
        "coordinates": [30.7333, 76.7794],
        "color": "red",
        "type":"Food Processing"
    },
    {
        "name": "United Brewery LTD. (Kingfisher)",
        "city": "Goa",
        "coordinates": [15.2993, 74.1240],
        "color": "orange",
        "type":"Brewery"
    },
    {
        "name": "United Brewery LTD. (Kingfisher)",
        "city": "Ludhiana",
        "coordinates": [30.9010, 75.8573],
        "color": "orange",
        "type":"Brewery"
    },
    {
        "name": "United Brewery LTD. (Kingfisher)",
        "city": "Banglore",
        "coordinates": [12.9716, 77.5946],
        "color": "orange",
        "type":"Brewery"
    },
    {
        "name": "Crown Beers India LTD.",
        "city": "Hyderabad",
        "coordinates": [17.3850, 78.4867],
        "color": "orange",
        "type":"Brewery"
    },
    {
        "name": "Mount Shivalikbrewery LTD.",
        "city": "Saha",
        "coordinates": [30.3006, 76.9672],
        "color": "orange",
        "type":"Brewery"
    },
    {
        "name": "Mount Shivalikbrewery LTD.",
        "city": "Bhankarpur",
        "coordinates": [27.62695, 77.92356],
        "color": "orange",
        "type":"Brewery"
    },
    {
        "name": "Som Breweries",
        "city": "Bhopal",
        "coordinates": [23.2599, 77.4126],
        "color": "orange",
        "type":"Brewery"
    },
    {
        "name": "Som Breweries",
        "city": "Cuttack",
        "coordinates": [20.4625, 85.8830],
        "color": "orange",
        "type":"Brewery"
    },
    {
        "name": "Kals Brewery PVT. LTD.",
        "city": "Trichy",
        "coordinates": [10.7905, 78.7047],
        "color": "orange",
        "type":"Brewery"
    },
    {
        "name": "B9 Beverages PVT. LTD.",
        "city": "Nagpur",
        "coordinates": [21.1458, 78.0882],
        "color": "orange",
        "type":"Brewery"
    },
    {
        "name": "Carlsberg India PVT. LTD.",
        "city": "Sangareddy",
        "coordinates": [17.6075, 78.0798],
        "color": "orange",
        "type":"Brewery"
    },
    {
        "name": "Asia Pacific Brewery LTD.",
        "city": "Sangareddy",
        "coordinates": [17.6075, 77.0798],
        "color": "orange",
        "type":"Brewery"
    },
    {
        "name": "SPR Distilleries",
        "city": "Banglore",
        "coordinates": [12.9716, 77.0],
        "color": "orange",
        "type":"Brewery"
    },
    {
        "name": "Mount Everest Brewery LTD.",
        "city": "Indore",
        "coordinates": [22.7196,  75.8577],
        "color": "orange",
        "type":"Brewery"
    },
    {
        "name": "Blossom Industries LTD.",
        "city": "Daman",
        "coordinates": [20.3974, 72.8328],
        "color": "orange",
        "type":"Brewery"
    },
    {
        "name": "Pearl Drinks LTD. (Pepsi)",
        "city": "Guntur",
        "coordinates": [16.3067, 80.4365],
        "color": "green",
        "type":"Beverages"
    },
    {
        "name": "Pearl Drinks LTD. (Pepsi)",
        "city": "Visakhapatnam",
        "coordinates": [17.6868, 83.2185],
        "color": "green",
        "type":"Beverages"
    },
    {
        "name": "Pran RFL Group",
        "city": "Bangladesh",
        "coordinates": [23.6850, 90.3563],
        "color": "green",
        "type":"Beverages"
    },
    {
        "name": "Hindustan Coca-Cola Beverages PVT. LTD.",
        "city": "Bedadi-Banglore",
        "coordinates": [12.7969, 77.3838],
        "color": "green",
        "type":"Beverages"
    },
    {
        "name": "Hindustan Coca-Cola Beverages PVT. LTD.",
        "city": "Nashik",
        "coordinates": [19.9975, 73.7898],
        "color": "green",
        "type":"Beverages"
    },
    {
        "name": "Hindustan Coca-Cola Beverages PVT. LTD.",
        "city": "Hospet",
        "coordinates": [15.2689, 76.3909],
        "color": "green",
        "type":"Beverages"
    },
    {
        "name": "Hindustan Coca-Cola Beverages PVT. LTD.",
        "city": "khurda-bhubaneswar",
        "coordinates": [20.2961, 85.8245],
        "color": "green",
        "type":"Beverages"
    },
    {
        "name": "Hindustan Coca-Cola Beverages PVT. LTD.",
        "city": "Tirunelveli Wada",
        "coordinates": [8.7139, 77.7567],
        "color": "green",
        "type":"Beverages"
    },
    {
        "name": "Hindustan Coca-Cola Beverages PVT. LTD.",
        "city": "Kathmandu",
        "coordinates": [27.7172, 85.3240],
        "color": "green",
        "type":"Beverages"
    },
    {
        "name": "Mehsana District Co-Operative Milk Producers Union LTD. (Amul)",
        "city": "Mehsana",
        "coordinates": [23.5880, 72.3693],
        "color": "purple",
        "type":"Dairy"
    },
    {
        "name": "Shri Warna Sahkari Dudh Sangh",
        "city": "Kohlapur",
        "coordinates": [16.7050, 74.2433],
        "color": "purple",
        "type":"Dairy"
    },
    {
        "name": "Shivamrut Dudh Sangh",
        "city": "Akluj",
        "coordinates": [17.8824, 75.0205],
        "color": "purple",
        "type":"Dairy"
    },
    {
        "name": "Pran Dairy",
        "city": "Bangladesh",
        "coordinates": [23.6850, 91.3563],
        "color": "purple",
        "type":"Dairy"
    },
    {
        "name": "Hatsun Agro Products LTD.",
        "city": "Salem",
        "coordinates": [11.6643, 78.1460],
        "color": "purple",
        "type":"Dairy"
    },
    {
        "name": "Hatsun Agro Products LTD.",
        "city": "Kanchipuram",
        "coordinates": [12.8185, 79.6947],
        "color": "purple",
        "type":"Dairy"
    },
    {
        "name": "Hatsun Agro Products LTD.",
        "city": "Chennai",
        "coordinates": [13.0827, 80.2707],
        "color": "purple",
        "type":"Dairy"
    },
    {
        "name": "Parag Milk",
        "city": "Manchar",
        "coordinates": [19.0047, 73.9469],
        "color": "purple",
        "type":"Dairy"
    },
    {
        "name": "Godavari khore Dudh Sangha",
        "city": "Kopargaon",
        "coordinates": [19.8849, 74.4728],
        "color": "purple",
        "type":"Dairy"
    },
    {
        "name": "Rajhansa Dudh",
        "city": "Sangamner",
        "coordinates": [19.5761, 74.2070],
        "color": "purple",
        "type":"Dairy"
    },
    {
        "name": "Hatsun Agro Products LTD.",
        "city": "Krishnagiri",
        "coordinates": [12.5266, 78.2150],
        "color": "purple",
        "type":"Dairy"
    }


    
   
]
    
}